{
"type": "FeatureCollection",
"name": "Firmes_Brevets_WIPO2018",
"crs": { "type": "name", "properties": { "name": "urn:ogc:def:crs:OGC:1.3:CRS84" } },
"features": [
{ "type": "Feature", "properties": { "LAT": 35.6895, "LONG": 139.6917, "VILLE": "Tokyo", "PAYS_CODE": "JP", "N_PCT2018": 69, "NBREV2018": 21678 }, "geometry": { "type": "Point", "coordinates": [ 139.6917, 35.6895 ] } },
{ "type": "Feature", "properties": { "LAT": 22.5415, "LONG": 114.0634, "VILLE": "Shenzhen", "PAYS_CODE": "CN", "N_PCT2018": 18, "NBREV2018": 11704 }, "geometry": { "type": "Point", "coordinates": [ 114.0634, 22.5415 ] } },
{ "type": "Feature", "properties": { "LAT": 37.7599, "LONG": -122.4374, "VILLE": "San Francisco Bay Area", "PAYS_CODE": "US", "N_PCT2018": 10, "NBREV2018": 5351 }, "geometry": { "type": "Point", "coordinates": [ -122.4374, 37.7599 ] } },
{ "type": "Feature", "properties": { "LAT": 37.5683, "LONG": 126.9778, "VILLE": "Seoul", "PAYS_CODE": "KR", "N_PCT2018": 6, "NBREV2018": 5167 }, "geometry": { "type": "Point", "coordinates": [ 126.9778, 37.5683 ] } },
{ "type": "Feature", "properties": { "LAT": 34.6758, "LONG": 135.5538, "VILLE": "Osaka", "PAYS_CODE": "JP", "N_PCT2018": 10, "NBREV2018": 3389 }, "geometry": { "type": "Point", "coordinates": [ 135.5538, 34.6758 ] } },
{ "type": "Feature", "properties": { "LAT": 39.9075, "LONG": 116.3972, "VILLE": "Beijing", "PAYS_CODE": "CN", "N_PCT2018": 6, "NBREV2018": 2707 }, "geometry": { "type": "Point", "coordinates": [ 116.3972, 39.9075 ] } },
{ "type": "Feature", "properties": { "LAT": 48.1371, "LONG": 11.5734, "VILLE": "Munich", "PAYS_CODE": "DE", "N_PCT2018": 6, "NBREV2018": 2448 }, "geometry": { "type": "Point", "coordinates": [ 11.5734, 48.1371 ] } },
{ "type": "Feature", "properties": { "LAT": 48.8534, "LONG": 2.3488, "VILLE": "Paris", "PAYS_CODE": "FR", "N_PCT2018": 14, "NBREV2018": 2420 }, "geometry": { "type": "Point", "coordinates": [ 2.3488, 48.8534 ] } },
{ "type": "Feature", "properties": { "LAT": 32.7153, "LONG": -117.1573, "VILLE": "San Diego", "PAYS_CODE": "US", "N_PCT2018": 1, "NBREV2018": 2404 }, "geometry": { "type": "Point", "coordinates": [ -117.1573, 32.7153 ] } },
{ "type": "Feature", "properties": { "LAT": 35.011608, "LONG": 135.767885, "VILLE": "Kyoto", "PAYS_CODE": "JP", "N_PCT2018": 6, "NBREV2018": 2227 }, "geometry": { "type": "Point", "coordinates": [ 135.767885, 35.011608 ] } },
{ "type": "Feature", "properties": { "LAT": 29.7602, "LONG": -95.3694, "VILLE": "Houston", "PAYS_CODE": "US", "N_PCT2018": 4, "NBREV2018": 2194 }, "geometry": { "type": "Point", "coordinates": [ -95.3694, 29.7602 ] } },
{ "type": "Feature", "properties": { "LAT": 59.3326, "LONG": 18.0649, "VILLE": "Stockholm", "PAYS_CODE": "SE", "N_PCT2018": 2, "NBREV2018": 1751 }, "geometry": { "type": "Point", "coordinates": [ 18.0649, 59.3326 ] } },
{ "type": "Feature", "properties": { "LAT": 48.798916, "LONG": 9.065756, "VILLE": "Gerlingen", "PAYS_CODE": "DE", "N_PCT2018": 1, "NBREV2018": 1524 }, "geometry": { "type": "Point", "coordinates": [ 9.065756, 48.798916 ] } },
{ "type": "Feature", "properties": { "LAT": 47.6264, "LONG": -122.3331, "VILLE": "Redmond", "PAYS_CODE": "US", "N_PCT2018": 1, "NBREV2018": 1476 }, "geometry": { "type": "Point", "coordinates": [ -122.3331, 47.6264 ] } },
{ "type": "Feature", "properties": { "LAT": 42.3479, "LONG": -71.0645, "VILLE": "Boston", "PAYS_CODE": "US", "N_PCT2018": 5, "NBREV2018": 1474 }, "geometry": { "type": "Point", "coordinates": [ -71.0645, 42.3479 ] } },
{ "type": "Feature", "properties": { "LAT": 23.0212, "LONG": 113.7414, "VILLE": "Dongguan", "PAYS_CODE": "CN", "N_PCT2018": 2, "NBREV2018": 1221 }, "geometry": { "type": "Point", "coordinates": [ 113.7414, 23.0212 ] } },
{ "type": "Feature", "properties": { "LAT": 52.374, "LONG": 4.8897, "VILLE": "Amsterdam", "PAYS_CODE": "NL", "N_PCT2018": 1, "NBREV2018": 1033 }, "geometry": { "type": "Point", "coordinates": [ 4.8897, 52.374 ] } },
{ "type": "Feature", "properties": { "LAT": 44.9731, "LONG": -93.2699, "VILLE": "Minneapolis-Saint Paul", "PAYS_CODE": "US", "N_PCT2018": 3, "NBREV2018": 860 }, "geometry": { "type": "Point", "coordinates": [ -93.2699, 44.9731 ] } },
{ "type": "Feature", "properties": { "LAT": 60.1692, "LONG": 24.9402, "VILLE": "Helsinki", "PAYS_CODE": "FI", "N_PCT2018": 2, "NBREV2018": 739 }, "geometry": { "type": "Point", "coordinates": [ 24.9402, 60.1692 ] } },
{ "type": "Feature", "properties": { "LAT": 49.568243, "LONG": 10.882804, "VILLE": "Herzogenaurach", "PAYS_CODE": "DE", "N_PCT2018": 1, "NBREV2018": 613 }, "geometry": { "type": "Point", "coordinates": [ 10.882804, 49.568243 ] } },
{ "type": "Feature", "properties": { "LAT": 40.717, "LONG": -74.0037, "VILLE": "New York-Newark", "PAYS_CODE": "US", "N_PCT2018": 3, "NBREV2018": 610 }, "geometry": { "type": "Point", "coordinates": [ -74.0037, 40.717 ] } },
{ "type": "Feature", "properties": { "LAT": 34.9769, "LONG": 138.3831, "VILLE": "Hamamatsu", "PAYS_CODE": "JP", "N_PCT2018": 2, "NBREV2018": 606 }, "geometry": { "type": "Point", "coordinates": [ 138.3831, 34.9769 ] } },
{ "type": "Feature", "properties": { "LAT": 30.2937, "LONG": 120.1614, "VILLE": "Hangzhou", "PAYS_CODE": "CN", "N_PCT2018": 3, "NBREV2018": 605 }, "geometry": { "type": "Point", "coordinates": [ 120.1614, 30.2937 ] } },
{ "type": "Feature", "properties": { "LAT": 49.47699, "LONG": 8.445369, "VILLE": "Ludwigshafen", "PAYS_CODE": "DE", "N_PCT2018": 1, "NBREV2018": 557 }, "geometry": { "type": "Point", "coordinates": [ 8.445369, 49.47699 ] } },
{ "type": "Feature", "properties": { "LAT": 51.4408, "LONG": 5.4778, "VILLE": "Eindhoven", "PAYS_CODE": "NL", "N_PCT2018": 2, "NBREV2018": 556 }, "geometry": { "type": "Point", "coordinates": [ 5.4778, 51.4408 ] } },
{ "type": "Feature", "properties": { "LAT": 36.0986, "LONG": 120.3719, "VILLE": "Qingdao", "PAYS_CODE": "CN", "N_PCT2018": 2, "NBREV2018": 538 }, "geometry": { "type": "Point", "coordinates": [ 120.3719, 36.0986 ] } },
{ "type": "Feature", "properties": { "LAT": 47.472883, "LONG": 8.308095, "VILLE": "Baden", "PAYS_CODE": "CH", "N_PCT2018": 2, "NBREV2018": 529 }, "geometry": { "type": "Point", "coordinates": [ 8.308095, 47.472883 ] } },
{ "type": "Feature", "properties": { "LAT": 39.1047, "LONG": -84.5188, "VILLE": "Cincinnati", "PAYS_CODE": "US", "N_PCT2018": 1, "NBREV2018": 513 }, "geometry": { "type": "Point", "coordinates": [ -84.5188, 39.1047 ] } },
{ "type": "Feature", "properties": { "LAT": 34.96482, "LONG": 136.62383, "VILLE": "Yokkaichi", "PAYS_CODE": "JP", "N_PCT2018": 2, "NBREV2018": 493 }, "geometry": { "type": "Point", "coordinates": [ 136.62383, 34.96482 ] } },
{ "type": "Feature", "properties": { "LAT": 51.494435, "LONG": 4.287212, "VILLE": "Bergen Op Zoom ", "PAYS_CODE": "NL", "N_PCT2018": 1, "NBREV2018": 446 }, "geometry": { "type": "Point", "coordinates": [ 4.287212, 51.494435 ] } },
{ "type": "Feature", "properties": { "LAT": 32.7254, "LONG": -97.3209, "VILLE": "Dallas-Fort Worth", "PAYS_CODE": "US", "N_PCT2018": 3, "NBREV2018": 426 }, "geometry": { "type": "Point", "coordinates": [ -97.3209, 32.7254 ] } },
{ "type": "Feature", "properties": { "LAT": 23.1255, "LONG": 113.2574, "VILLE": "Guangzhou", "PAYS_CODE": "CN", "N_PCT2018": 2, "NBREV2018": 425 }, "geometry": { "type": "Point", "coordinates": [ 113.2574, 23.1255 ] } },
{ "type": "Feature", "properties": { "LAT": 47.5584, "LONG": 7.5733, "VILLE": "Bâle", "PAYS_CODE": "CH", "N_PCT2018": 2, "NBREV2018": 420 }, "geometry": { "type": "Point", "coordinates": [ 7.5733, 47.5584 ] } },
{ "type": "Feature", "properties": { "LAT": 31.997376, "LONG": -102.077938, "VILLE": "Midland", "PAYS_CODE": "US", "N_PCT2018": 1, "NBREV2018": 417 }, "geometry": { "type": "Point", "coordinates": [ -102.077938, 31.997376 ] } },
{ "type": "Feature", "properties": { "LAT": 45.777186, "LONG": 3.087068, "VILLE": "Clermont-Ferrand", "PAYS_CODE": "FR", "N_PCT2018": 1, "NBREV2018": 406 }, "geometry": { "type": "Point", "coordinates": [ 3.087068, 45.777186 ] } },
{ "type": "Feature", "properties": { "LAT": 30.5833, "LONG": 114.2667, "VILLE": "Wuhan", "PAYS_CODE": "CN", "N_PCT2018": 1, "NBREV2018": 395 }, "geometry": { "type": "Point", "coordinates": [ 114.2667, 30.5833 ] } },
{ "type": "Feature", "properties": { "LAT": 41.85, "LONG": -87.6501, "VILLE": "Chicago", "PAYS_CODE": "US", "N_PCT2018": 2, "NBREV2018": 351 }, "geometry": { "type": "Point", "coordinates": [ -87.6501, 41.85 ] } },
{ "type": "Feature", "properties": { "LAT": 52.3705, "LONG": 9.7332, "VILLE": "Hanovre", "PAYS_CODE": "DE", "N_PCT2018": 1, "NBREV2018": 330 }, "geometry": { "type": "Point", "coordinates": [ 9.7332, 52.3705 ] } },
{ "type": "Feature", "properties": { "LAT": 26.232962, "LONG": 50.038415, "VILLE": "Dharhan", "PAYS_CODE": "SA", "N_PCT2018": 1, "NBREV2018": 321 }, "geometry": { "type": "Point", "coordinates": [ 50.038415, 26.232962 ] } },
{ "type": "Feature", "properties": { "LAT": 22.2796, "LONG": 114.1887, "VILLE": "Hong Kong", "PAYS_CODE": "CN", "N_PCT2018": 1, "NBREV2018": 318 }, "geometry": { "type": "Point", "coordinates": [ 114.1887, 22.2796 ] } },
{ "type": "Feature", "properties": { "LAT": 41.0138, "LONG": 28.9497, "VILLE": "Istanbul", "PAYS_CODE": "TR", "N_PCT2018": 1, "NBREV2018": 312 }, "geometry": { "type": "Point", "coordinates": [ 28.9497, 41.0138 ] } },
{ "type": "Feature", "properties": { "LAT": 51.045871, "LONG": 7.019272, "VILLE": "Leverkusen", "PAYS_CODE": "DE", "N_PCT2018": 2, "NBREV2018": 310 }, "geometry": { "type": "Point", "coordinates": [ 7.019272, 51.045871 ] } },
{ "type": "Feature", "properties": { "LAT": 42.142373, "LONG": -77.054778, "VILLE": "Corning", "PAYS_CODE": "US", "N_PCT2018": 1, "NBREV2018": 308 }, "geometry": { "type": "Point", "coordinates": [ -77.054778, 42.142373 ] } },
{ "type": "Feature", "properties": { "LAT": 48.766371, "LONG": 11.425704, "VILLE": "Ingolstadt", "PAYS_CODE": "DE", "N_PCT2018": 1, "NBREV2018": 300 }, "geometry": { "type": "Point", "coordinates": [ 11.425704, 48.766371 ] } },
{ "type": "Feature", "properties": { "LAT": 47.660797, "LONG": 9.479772, "VILLE": "Friedrichshafen", "PAYS_CODE": "DE", "N_PCT2018": 1, "NBREV2018": 289 }, "geometry": { "type": "Point", "coordinates": [ 9.479772, 47.660797 ] } },
{ "type": "Feature", "properties": { "LAT": 37.240889, "LONG": 127.177321, "VILLE": "Yongin", "PAYS_CODE": "KR", "N_PCT2018": 1, "NBREV2018": 288 }, "geometry": { "type": "Point", "coordinates": [ 127.177321, 37.240889 ] } },
{ "type": "Feature", "properties": { "LAT": 51.2217, "LONG": 6.7762, "VILLE": "Düsseldorf", "PAYS_CODE": "DE", "N_PCT2018": 1, "NBREV2018": 283 }, "geometry": { "type": "Point", "coordinates": [ 6.7762, 51.2217 ] } },
{ "type": "Feature", "properties": { "LAT": 49.013404, "LONG": 12.101659, "VILLE": "Ratisbonne", "PAYS_CODE": "DE", "N_PCT2018": 1, "NBREV2018": 264 }, "geometry": { "type": "Point", "coordinates": [ 12.101659, 49.013404 ] } },
{ "type": "Feature", "properties": { "LAT": 36.0172, "LONG": 129.3602, "VILLE": "Pohang", "PAYS_CODE": "KR", "N_PCT2018": 1, "NBREV2018": 236 }, "geometry": { "type": "Point", "coordinates": [ 129.3602, 36.0172 ] } },
{ "type": "Feature", "properties": { "LAT": 49.872712, "LONG": 8.651195, "VILLE": "Darmstadt", "PAYS_CODE": "DE", "N_PCT2018": 1, "NBREV2018": 229 }, "geometry": { "type": "Point", "coordinates": [ 8.651195, 49.872712 ] } },
{ "type": "Feature", "properties": { "LAT": 39.7909, "LONG": -86.1477, "VILLE": "Indianapolis", "PAYS_CODE": "US", "N_PCT2018": 1, "NBREV2018": 225 }, "geometry": { "type": "Point", "coordinates": [ -86.1477, 39.7909 ] } },
{ "type": "Feature", "properties": { "LAT": 40.589256, "LONG": -74.634191, "VILLE": "Bridgewater", "PAYS_CODE": "US", "N_PCT2018": 1, "NBREV2018": 216 }, "geometry": { "type": "Point", "coordinates": [ -74.634191, 40.589256 ] } },
{ "type": "Feature", "properties": { "LAT": 46.992845, "LONG": 6.931868, "VILLE": "Neuchâtel", "PAYS_CODE": "CH", "N_PCT2018": 1, "NBREV2018": 214 }, "geometry": { "type": "Point", "coordinates": [ 6.931868, 46.992845 ] } },
{ "type": "Feature", "properties": { "LAT": 52.433112, "LONG": 10.790451, "VILLE": "Wolfsburg", "PAYS_CODE": "DE", "N_PCT2018": 1, "NBREV2018": 205 }, "geometry": { "type": "Point", "coordinates": [ 10.790451, 52.433112 ] } },
{ "type": "Feature", "properties": { "LAT": 46.462548, "LONG": 6.841974, "VILLE": "Vevey", "PAYS_CODE": "CH", "N_PCT2018": 1, "NBREV2018": 200 }, "geometry": { "type": "Point", "coordinates": [ 6.841974, 46.462548 ] } },
{ "type": "Feature", "properties": { "LAT": 40.796699, "LONG": -74.481526, "VILLE": "Morristown", "PAYS_CODE": "US", "N_PCT2018": 1, "NBREV2018": 196 }, "geometry": { "type": "Point", "coordinates": [ -74.481526, 40.796699 ] } },
{ "type": "Feature", "properties": { "LAT": 24.812586, "LONG": 120.967716, "VILLE": "Hsinchu", "PAYS_CODE": "CN", "N_PCT2018": 1, "NBREV2018": 186 }, "geometry": { "type": "Point", "coordinates": [ 120.967716, 24.812586 ] } },
{ "type": "Feature", "properties": { "LAT": 43.6195, "LONG": -116.2123, "VILLE": "Boise", "PAYS_CODE": "US", "N_PCT2018": 1, "NBREV2018": 184 }, "geometry": { "type": "Point", "coordinates": [ -116.2123, 43.6195 ] } },
{ "type": "Feature", "properties": { "LAT": 35.017883, "LONG": 135.854547, "VILLE": "Otsu", "PAYS_CODE": "JP", "N_PCT2018": 1, "NBREV2018": 182 }, "geometry": { "type": "Point", "coordinates": [ 135.854547, 35.017883 ] } },
{ "type": "Feature", "properties": { "LAT": 34.689761, "LONG": 135.195261, "VILLE": "Kobe", "PAYS_CODE": "JP", "N_PCT2018": 1, "NBREV2018": 180 }, "geometry": { "type": "Point", "coordinates": [ 135.195261, 34.689761 ] } },
{ "type": "Feature", "properties": { "LAT": 39.5296, "LONG": -119.8138, "VILLE": "Reno", "PAYS_CODE": "US", "N_PCT2018": 1, "NBREV2018": 177 }, "geometry": { "type": "Point", "coordinates": [ -119.8138, 39.5296 ] } },
{ "type": "Feature", "properties": { "LAT": 22.2769, "LONG": 113.5678, "VILLE": "Zhuhai", "PAYS_CODE": "CN", "N_PCT2018": 1, "NBREV2018": 177 }, "geometry": { "type": "Point", "coordinates": [ 113.5678, 22.2769 ] } },
{ "type": "Feature", "properties": { "LAT": 52.4066, "LONG": -1.5122, "VILLE": "Coventry", "PAYS_CODE": "GB", "N_PCT2018": 1, "NBREV2018": 175 }, "geometry": { "type": "Point", "coordinates": [ -1.5122, 52.4066 ] } },
{ "type": "Feature", "properties": { "LAT": 36.71, "LONG": 119.1019, "VILLE": "Weifang", "PAYS_CODE": "CN", "N_PCT2018": 1, "NBREV2018": 173 }, "geometry": { "type": "Point", "coordinates": [ 119.1019, 36.71 ] } },
{ "type": "Feature", "properties": { "LAT": 45.5215, "LONG": -122.6799, "VILLE": "Portland", "PAYS_CODE": "US", "N_PCT2018": 1, "NBREV2018": 170 }, "geometry": { "type": "Point", "coordinates": [ -122.6799, 45.5215 ] } },
{ "type": "Feature", "properties": { "LAT": 30.27, "LONG": -97.74, "VILLE": "Austin", "PAYS_CODE": "US", "N_PCT2018": 1, "NBREV2018": 158 }, "geometry": { "type": "Point", "coordinates": [ -97.74, 30.27 ] } },
{ "type": "Feature", "properties": { "LAT": 50.888062, "LONG": 5.979512, "VILLE": "Heerlen", "PAYS_CODE": "NL", "N_PCT2018": 1, "NBREV2018": 138 }, "geometry": { "type": "Point", "coordinates": [ 5.979512, 50.888062 ] } },
{ "type": "Feature", "properties": { "LAT": 34.717623, "LONG": 137.851538, "VILLE": "Iwata", "PAYS_CODE": "JP", "N_PCT2018": 1, "NBREV2018": 137 }, "geometry": { "type": "Point", "coordinates": [ 137.851538, 34.717623 ] } },
{ "type": "Feature", "properties": { "LAT": 51.5085, "LONG": -0.1257, "VILLE": "Londres", "PAYS_CODE": "GB", "N_PCT2018": 1, "NBREV2018": 136 }, "geometry": { "type": "Point", "coordinates": [ -0.1257, 51.5085 ] } },
{ "type": "Feature", "properties": { "LAT": 39.043327, "LONG": -77.487324, "VILLE": "Ashburn", "PAYS_CODE": "US", "N_PCT2018": 1, "NBREV2018": 135 }, "geometry": { "type": "Point", "coordinates": [ -77.487324, 39.043327 ] } },
{ "type": "Feature", "properties": { "LAT": 42.3871, "LONG": -83.1026, "VILLE": "Detroit", "PAYS_CODE": "US", "N_PCT2018": 1, "NBREV2018": 131 }, "geometry": { "type": "Point", "coordinates": [ -83.1026, 42.3871 ] } },
{ "type": "Feature", "properties": { "LAT": 56.162232, "LONG": 10.204073, "VILLE": "Aarhus", "PAYS_CODE": "DK", "N_PCT2018": 1, "NBREV2018": 130 }, "geometry": { "type": "Point", "coordinates": [ 10.204073, 56.162232 ] } },
{ "type": "Feature", "properties": { "LAT": 1.2897, "LONG": 103.8501, "VILLE": "Singapour", "PAYS_CODE": "SG", "N_PCT2018": 1, "NBREV2018": 130 }, "geometry": { "type": "Point", "coordinates": [ 103.8501, 1.2897 ] } },
{ "type": "Feature", "properties": { "LAT": 36.372782, "LONG": -94.208786, "VILLE": "Bentonville", "PAYS_CODE": "US", "N_PCT2018": 1, "NBREV2018": 129 }, "geometry": { "type": "Point", "coordinates": [ -94.208786, 36.372782 ] } },
{ "type": "Feature", "properties": { "LAT": 38.5816, "LONG": -121.4944, "VILLE": "Sacramento", "PAYS_CODE": "US", "N_PCT2018": 1, "NBREV2018": 129 }, "geometry": { "type": "Point", "coordinates": [ -121.4944, 38.5816 ] } },
{ "type": "Feature", "properties": { "LAT": 47.13947, "LONG": 9.518372, "VILLE": "Liechtenstein", "PAYS_CODE": "LI", "N_PCT2018": 1, "NBREV2018": 124 }, "geometry": { "type": "Point", "coordinates": [ 9.518372, 47.13947 ] } },
{ "type": "Feature", "properties": { "LAT": 31.2222, "LONG": 121.4581, "VILLE": "Shanghai", "PAYS_CODE": "CN", "N_PCT2018": 1, "NBREV2018": 117 }, "geometry": { "type": "Point", "coordinates": [ 121.4581, 31.2222 ] } },
{ "type": "Feature", "properties": { "LAT": 26.124444, "LONG": -80.249444, "VILLE": "Plantation", "PAYS_CODE": "US", "N_PCT2018": 1, "NBREV2018": 116 }, "geometry": { "type": "Point", "coordinates": [ -80.249444, 26.124444 ] } },
{ "type": "Feature", "properties": { "LAT": 35.1815, "LONG": 136.9064, "VILLE": "Nagoya", "PAYS_CODE": "JP", "N_PCT2018": 1, "NBREV2018": 114 }, "geometry": { "type": "Point", "coordinates": [ 136.9064, 35.1815 ] } },
{ "type": "Feature", "properties": { "LAT": 34.2637, "LONG": 117.1866, "VILLE": "Xuzhou", "PAYS_CODE": "CN", "N_PCT2018": 1, "NBREV2018": 114 }, "geometry": { "type": "Point", "coordinates": [ 117.1866, 34.2637 ] } },
{ "type": "Feature", "properties": { "LAT": 38.860363, "LONG": -77.224007, "VILLE": "Fairfax", "PAYS_CODE": "US", "N_PCT2018": 1, "NBREV2018": 112 }, "geometry": { "type": "Point", "coordinates": [ -77.224007, 38.860363 ] } },
{ "type": "Feature", "properties": { "LAT": 52.205298, "LONG": 0.121849, "VILLE": "Cambridge", "PAYS_CODE": "GB", "N_PCT2018": 1, "NBREV2018": 111 }, "geometry": { "type": "Point", "coordinates": [ 0.121849, 52.205298 ] } },
{ "type": "Feature", "properties": { "LAT": 55.9521, "LONG": -3.1965, "VILLE": "Edinburgh", "PAYS_CODE": "GB", "N_PCT2018": 1, "NBREV2018": 110 }, "geometry": { "type": "Point", "coordinates": [ -3.1965, 55.9521 ] } },
{ "type": "Feature", "properties": { "LAT": 26.6617, "LONG": 119.5228, "VILLE": "Ningde", "PAYS_CODE": "CN", "N_PCT2018": 1, "NBREV2018": 110 }, "geometry": { "type": "Point", "coordinates": [ 119.5228, 26.6617 ] } },
{ "type": "Feature", "properties": { "LAT": 51.9225, "LONG": 4.4792, "VILLE": "Rotterdam", "PAYS_CODE": "NL", "N_PCT2018": 1, "NBREV2018": 107 }, "geometry": { "type": "Point", "coordinates": [ 4.4792, 51.9225 ] } },
{ "type": "Feature", "properties": { "LAT": 48.7823, "LONG": 9.177, "VILLE": "Stuttgart", "PAYS_CODE": "DE", "N_PCT2018": 1, "NBREV2018": 107 }, "geometry": { "type": "Point", "coordinates": [ 9.177, 48.7823 ] } },
{ "type": "Feature", "properties": { "LAT": 35.08253, "LONG": 137.156082, "VILLE": "Toyota city", "PAYS_CODE": "JP", "N_PCT2018": 1, "NBREV2018": 107 }, "geometry": { "type": "Point", "coordinates": [ 137.156082, 35.08253 ] } },
{ "type": "Feature", "properties": { "LAT": 34.225623, "LONG": -77.944653, "VILLE": "Wilmington", "PAYS_CODE": "US", "N_PCT2018": 1, "NBREV2018": 105 }, "geometry": { "type": "Point", "coordinates": [ -77.944653, 34.225623 ] } },
{ "type": "Feature", "properties": { "LAT": 51.4537, "LONG": 7.0104, "VILLE": "Essen", "PAYS_CODE": "DE", "N_PCT2018": 1, "NBREV2018": 104 }, "geometry": { "type": "Point", "coordinates": [ 7.0104, 51.4537 ] } },
{ "type": "Feature", "properties": { "LAT": 48.689295, "LONG": 10.161076, "VILLE": "Heidenheim an der Brenz", "PAYS_CODE": "DE", "N_PCT2018": 1, "NBREV2018": 104 }, "geometry": { "type": "Point", "coordinates": [ 10.161076, 48.689295 ] } },
{ "type": "Feature", "properties": { "LAT": 39.9622, "LONG": -83.0002, "VILLE": "Columbus", "PAYS_CODE": "US", "N_PCT2018": 1, "NBREV2018": 103 }, "geometry": { "type": "Point", "coordinates": [ -83.0002, 39.9622 ] } },
{ "type": "Feature", "properties": { "LAT": 37.4386, "LONG": 127.1378, "VILLE": "Seongnam", "PAYS_CODE": "KR", "N_PCT2018": 1, "NBREV2018": 103 }, "geometry": { "type": "Point", "coordinates": [ 127.1378, 37.4386 ] } },
{ "type": "Feature", "properties": { "LAT": 57.7032, "LONG": 11.9663, "VILLE": "Göteborg", "PAYS_CODE": "SE", "N_PCT2018": 1, "NBREV2018": 102 }, "geometry": { "type": "Point", "coordinates": [ 11.9663, 57.7032 ] } },
{ "type": "Feature", "properties": { "LAT": 51.671072, "LONG": 8.340639, "VILLE": "Lippstadt", "PAYS_CODE": "DE", "N_PCT2018": 1, "NBREV2018": 102 }, "geometry": { "type": "Point", "coordinates": [ 8.340639, 51.671072 ] } },
{ "type": "Feature", "properties": { "LAT": 59.194411, "LONG": 17.625745, "VILLE": "Södertälje", "PAYS_CODE": "SE", "N_PCT2018": 1, "NBREV2018": 102 }, "geometry": { "type": "Point", "coordinates": [ 17.625745, 59.194411 ] } }
]
}
